[
    {
        "id": "firstStep",
        "lat": -1306,
        "lng": 681.75,
        "players": 1,
        "minBP": 800,
        "enemyLv": 1,
        "region": "aelio",
        "title": "First Step"
    },
    {
        "id": "enchancedEnemy",
        "lat": -1488,
        "lng": 432.25,
        "players": 4,
        "minBP": 894,
        "enemyLv": 5,
        "region": "aelio",
        "title": "Enhanced Enemy"
    },
    {
        "id": "swiftJump",
        "lat": -1121.5,
        "lng": 406.5,
        "players": 4,
        "minBP": 916,
        "enemyLv": 6,
        "region": "aelio",
        "title": "Swift Jump"
    },
    {
        "id": "wildRush",
        "lat": -1882.25,
        "lng": 826.25,
        "players": 4,
        "minBP": 894,
        "enemyLv": 5,
        "challenge": true,
        "region": "aelio",
        "title": "Wild Rush"
    },
    {
        "id": "testFlight",
        "lat": -1173.25,
        "lng": 33,
        "players": 4,
        "minBP": 835,
        "enemyLv": 3,
        "region": "aelio",
        "title": "Test Flight"
    },
    {
        "id": "roaringRush",
        "lat": -1894.5,
        "lng": 387.5,
        "players": 4,
        "minBP": 1184,
        "enemyLv": 15,
        "challenge": true,
        "region": "aelio",
        "title": "Roaring Rush"
    },
    {
        "id": "fleetingFight",
        "lat": -1219.25,
        "lng": 976.75,
        "players": 4,
        "minBP": 1184,
        "enemyLv": 15,
        "challenge": true,
        "region": "aelio",
        "title": "Fleeting Fight"
    },
    {
        "id": "runway",
        "lat": -1723.875,
        "lng": 877.125,
        "players": 4,
        "minBP": 1009,
        "enemyLv": 10,
        "region": "aelio",
        "title": "Runway"
    },
    {
        "id": "vanishingPath",
        "lat": -1192.375,
        "lng": 1288.375,
        "players": 4,
        "minBP": 1562,
        "enemyLv": 25,
        "challenge": true,
        "region": "retem",
        "title": "Vanishing Path"
    },
    {
        "id": "narrowCage",
        "lat": -1223,
        "lng": 1674.125,
        "players": 4,
        "minBP": 1396,
        "enemyLv": 21,
        "challenge": true,
        "region": "retem",
        "title": "Narrow Cage"
    },
    {
        "id": "buddyAttack",
        "lat": -1219,
        "lng": 1871.375,
        "players": 4,
        "minBP": 1396,
        "enemyLv": 21,
        "challenge": true,
        "region": "retem",
        "title": "Buddy Attack"
    },
    {
        "id": "dynaAssault",
        "lat": -1501.25,
        "lng": 1527.375,
        "players": 4,
        "minBP": 1223,
        "enemyLv": 17,
        "challenge": true,
        "region": "retem",
        "title": "Dyna Assault"
    },
    {
        "id": "parkourMaster",
        "lat": -1969,
        "lng": 1127,
        "players": 4,
        "minBP": 1223,
        "enemyLv": 17,
        "region": "retem",
        "title": "Parkour Master"
    },
    {
        "id": "runway2",
        "lat": -1759.25,
        "lng": 1787.5,
        "players": 4,
        "minBP": 1223,
        "enemyLv": 17,
        "region": "retem",
        "title": "Runway 2"
    },
    {
        "id": "holibleFlapping",
        "lat": -717,
        "lng": 72,
        "players": 4,
        "minBP": 2082,
        "enemyLv": 44,
        "challenge": true,
        "region": "kvaris",
        "title": "Horrible Flapping"
    },
    {
        "id": "crazyTail",
        "lat": -857.5,
        "lng": 832.5,
        "players": 4,
        "minBP": 2018,
        "enemyLv": 42,
        "challenge": true,
        "region": "kvaris",
        "title": "Crazy Tail"
    },
    {
        "id": "slopeTile",
        "lat": -694.5,
        "lng": 622,
        "players": 4,
        "minBP": 2018,
        "enemyLv": 42,
        "region": "kvaris",
        "title": "Slope Tile"
    },
    {
        "id": "clockworkJail",
        "lat": -557.5,
        "lng": 348.75,
        "players": 4,
        "minBP": 2082,
        "enemyLv": 44,
        "challenge": true,
        "region": "kvaris",
        "title": "Clockwork Jail"
    },
    {
        "id": "wildAvalanche",
        "lat": -488.25,
        "lng": 629.75,
        "players": 4,
        "minBP": 2181,
        "enemyLv": 47,
        "challenge": true,
        "region": "kvaris",
        "title": "Wild Avalanche"
    },
    {
        "id": "vanishingPath2",
        "lat": -368.5,
        "lng": 501,
        "players": 4,
        "minBP": 2181,
        "enemyLv": 47,
        "region": "kvaris",
        "title": "Vanishing Path 2"
    },
    {
        "id": "quarterstaff",
        "lat": -383.75,
        "lng": 1387.25,
        "players": 4,
        "minBP": 2924,
        "enemyLv": 64,
        "challenge": true,
        "region": "stia",
        "title": "Quarterstaff"
    },
    {
        "id": "faceTheDarkness",
        "lat": -593.875,
        "lng": 1517,
        "players": 4,
        "minBP": 2878,
        "enemyLv": 63,
        "challenge": true,
        "region": "stia",
        "title": "Face The Darkness"
    },
    {
        "id": "helicalLine",
        "lat": -416.875,
        "lng": 1562.375,
        "players": 4,
        "minBP": 1223,
        "enemyLv": 60,
        "region": "stia",
        "title": "Helical Line"
    }
]
